[
  {
    "id": "51d476b8c260a7434059dd4484f0e8df4240f00102f9014c93d33400000000920312416264616c61c49f612054c3bc7262657369",
    "name": "Abdalağa Türbesi",
    "category": "building,building.historic,tourism,tourism.sights,tourism.sights.memorial,tourism.sights.memorial.tomb",
    "latitude": 37.7492963,
    "longitude": 39.3076404,
    "city": "Siverek",
    "state": "Southeastern Anatolia Region",
    "country": "Turkey",
    "formatted": "Abdalağa Türbesi, Haliliye 42. Sokak, Siverek, Turkey"
  },
  {
    "id": "51757f06e5c765434059e4197b7775954240f00103f90155f536170100000092030d416269646520416ec4b174c4b1",
    "name": "Abide Anıtı",
    "category": "tourism,tourism.sights,tourism.sights.memorial",
    "latitude": 37.1676473,
    "longitude": 38.7951628,
    "city": "Şanlıurfa",
    "state": "Southeastern Anatolia Region",
    "country": "Turkey",
    "formatted": "Abide Anıtı, Diyarbakır-Şanlıurfa yolu, 63100 Şanlıurfa, Turkey"
  },
  {
    "id": "514e4798b04f2343405970041c5833e14240f00102f9013001510d000000009203104164c4b179616d616e204b616c657369",
    "name": "Adıyaman Kalesi",
    "category": "tourism,tourism.sights,tourism.sights.castle",
    "latitude": 37.7593794,
    "longitude": 38.2758694,
    "city": "Adıyaman",
    "state": "Southeastern Anatolia Region",
    "country": "Turkey",
    "formatted": "Adıyaman Castle, 1320. Sokak, 02200 Adıyaman, Turkey"
  },
  {
    "id": "511184480c83234340599a5a18ee37e14240f00102f9013201510d000000009203134164c4b179616d616e20556c752043616d6969",
    "name": "Adıyaman Ulu Camii",
    "category": "religion,religion.place_of_worship,religion.place_of_worship.islam,tourism,tourism.sights,tourism.sights.place_of_worship",
    "latitude": 37.7595194,
    "longitude": 38.2774368,
    "city": "Adıyaman",
    "state": "Southeastern Anatolia Region",
    "country": "Turkey",
    "formatted": "Adıyaman Ulu Camii, 805. Sokak, 02200 Adıyaman, Turkey"
  },
  {
    "id": "51c2876de6eb5343405995ef0868c7f84240f00103f901a301cd2101000000",
    "name": "Apollon Relief",
    "category": "tourism,tourism.attraction,tourism.attraction.artwork",
    "latitude": 37.9435854,
    "longitude": 38.6556366,
    "city": "Kâhta",
    "state": "Southeastern Anatolia Region",
    "country": "Turkey",
    "formatted": "Apollon Relief, 02-09, Kâhta, Turkey"
  },
  {
    "id": "5120f939f4cc53434059ebda5b8bbbf84240f00103f9015251bb9000000000920308417273616d656961",
    "name": "Arsameia",
    "category": "tourism,tourism.sights,tourism.sights.archaeological_site",
    "latitude": 37.9432234,
    "longitude": 38.6546922,
    "city": "Kâhta",
    "state": "Southeastern Anatolia Region",
    "country": "Turkey",
    "formatted": "Arsameia, 02-09, Kâhta, Turkey"
  },
  {
    "id": "517cea036cc57543405948d3d77940684240f00102f901de3664100000000092031c41c59f61c49fc4b1204265c49f6465c59f2048c3b679c3bcc49fc3bc",
    "name": "Aşağı Beğdeş Höyüğü",
    "category": "man_made,tourism,tourism.sights,tourism.sights.archaeological_site",
    "latitude": 36.8144677,
    "longitude": 38.9200873,
    "city": "Akçakale",
    "state": "Southeastern Anatolia Region",
    "country": "Turkey",
    "formatted": "Aşağı Beğdeş Höyüğü, Şanlıurfa-Suriye yolu, Akçakale, Turkey"
  },
  {
    "id": "5154967c47e827434059ef987e8230bc4240f00103f901d6a4172b0100000092031e41746174c3bc726b20426172616ac4b1205365796972205465726173c4b1",
    "name": "Atatürk Barajı Seyir Terası",
    "category": "tourism,tourism.attraction,tourism.attraction.viewpoint",
    "latitude": 37.4702304,
    "longitude": 38.3117761,
    "city": "Bozova",
    "state": "Southeastern Anatolia Region",
    "country": "Turkey",
    "formatted": "Atatürk Dam, Şanlıurfa - Adıyaman Yolu, Bozova, Turkey"
  },
  {
    "id": "510d752819a8474340591e9d045cc6974240f00102f9018c70f53a0000000092030f4179616e6c61722048c3b679c3bc6b",
    "name": "Ayanlar Höyük",
    "category": "man_made,tourism,tourism.sights,tourism.sights.archaeological_site",
    "latitude": 37.1857409,
    "longitude": 38.5598175,
    "city": "Karaköprü",
    "state": "Southeastern Anatolia Region",
    "country": "Turkey",
    "formatted": "Ayanlar Höyük, Adana-Şanlıurfa Otoyolu, Karaköprü, Turkey"
  },
  {
    "id": "518ff2ddf7b966434059cafc6b448b9c4240f00103f901f21588b3020000009203084261c49f20457669",
    "name": "Bağ Evi",
    "category": "tourism,tourism.sights,tourism.sights.memorial,tourism.sights.memorial.monument",
    "latitude": 37.2230001,
    "longitude": 38.8025503,
    "city": "Karaköprü",
    "state": "Southeastern Anatolia Region",
    "country": "Turkey",
    "formatted": "Bağ Evi, 6144. Sokak, 63320 Karaköprü, Turkey"
  },
  {
    "id": "51298991cab9664340590d00673e8c9c4240f00103f901959578b3020000009203074261c49f657669",
    "name": "Bağevi",
    "category": "tourism,tourism.sights,tourism.sights.memorial,tourism.sights.memorial.monument",
    "latitude": 37.2230299,
    "longitude": 38.8025449,
    "city": "Karaköprü",
    "state": "Southeastern Anatolia Region",
    "country": "Turkey",
    "formatted": "Bağevi, 6144. Sokak, 63320 Karaköprü, Turkey"
  },
  {
    "id": "51f8cbdd9d6b6443405960ebbd8ae7924240f00103f901816b6e340200000092030d42616cc4b16b6cc4b167c3b66c",
    "name": "Balıklıgöl",
    "category": "tourism,tourism.attraction",
    "latitude": 37.1476911,
    "longitude": 38.7845342,
    "city": "Eyyübiye",
    "state": "Southeastern Anatolia Region",
    "country": "Turkey",
    "formatted": "Balıklıgöl Caddesi, 63210 Eyyübiye, Turkey"
  },
  {
    "id": "510ddfc2baf127434059eb9fff722dbc4240f00103f90185b7202b01000000920318426172616a20c59e656869746c65726920416ec4b174c4b1",
    "name": "Baraj Şehitleri Anıtı",
    "category": "tourism,tourism.sights,tourism.sights.memorial",
    "latitude": 37.470137,
    "longitude": 38.3120645,
    "city": "Bozova",
    "state": "Southeastern Anatolia Region",
    "country": "Turkey",
    "formatted": "Baraj Şehitleri Anıtı, Şanlıurfa - Adıyaman Yolu, Bozova, Turkey"
  },
  {
    "id": "512d16d0550465434059e9e0701de3924240f00103f901ba2de24a02000000",
    "name": "Barutcu Hani",
    "category": "tourism,tourism.attraction",
    "latitude": 37.147556,
    "longitude": 38.7891948,
    "city": "Eyyübiye",
    "state": "Southeastern Anatolia Region",
    "country": "Turkey",
    "formatted": "Barutcu Hani, Balıklıgöl Caddesi, 63210 Eyyübiye, Turkey"
  },
  {
    "id": "5134d5ad4cd317434059289a971d3dd04240f00102f901113eb20d0000000092030d42617474616c68c3b679c3bc6b",
    "name": "Battalhöyük",
    "category": "man_made,tourism,tourism.sights,tourism.sights.archaeological_site",
    "latitude": 37.6268651,
    "longitude": 38.1861358,
    "city": "Adıyaman",
    "state": "Southeastern Anatolia Region",
    "country": "Turkey",
    "formatted": "Battalhöyük, Şanlıurfa-Adıyaman yolu, Adıyaman, Turkey"
  },
  {
    "id": "51ee86d970fd64434059c421aadd65934240f00103f90176596e340200000092031842656175746966756c2061726d656e69616e20686f757365",
    "name": "Beautiful armenian house",
    "category": "tourism,tourism.attraction",
    "latitude": 37.1515462,
    "longitude": 38.7889844,
    "city": "Eyyübiye",
    "state": "Southeastern Anatolia Region",
    "country": "Turkey",
    "formatted": "Beautiful armenian house, 12Eylül Caddesi, 63210 Eyyübiye, Turkey"
  },
  {
    "id": "514d000f56ad644340595ee55705c5924240f00103f9018ee843380100000092031742656469c3bc7a7a616d616e20c4b06c6b204b61627269",
    "name": "Bediüzzaman İlk Kabri",
    "category": "tourism,tourism.sights,tourism.sights.memorial,tourism.sights.memorial.tomb",
    "latitude": 37.1466376,
    "longitude": 38.7865398,
    "city": "Eyyübiye",
    "state": "Southeastern Anatolia Region",
    "country": "Turkey",
    "formatted": "Bediüzzaman İlk Kabri, Balıklıgöl Caddesi, 63210 Eyyübiye, Turkey"
  },
  {
    "id": "51987620a11c84434059c1de3d100f6e4240f00103f901f6620e1302000000",
    "name": "Beehive house & Cafe",
    "category": "tourism,tourism.attraction",
    "latitude": 36.8598347,
    "longitude": 39.0321237,
    "city": "Harran",
    "state": "Southeastern Anatolia Region",
    "country": "Turkey",
    "formatted": "Beehive house & Cafe, 63-27, Harran, Turkey"
  },
  {
    "id": "51ced08ccafb8f434059c8f1531454754240f00102f9017967ad100000000092031442656c6c697461c59f2048c3b679c3bcc49fc3bc",
    "name": "Bellitaş Höyüğü",
    "category": "man_made,tourism,tourism.sights,tourism.sights.archaeological_site",
    "latitude": 36.9166284,
    "longitude": 39.1248716,
    "city": "Harran",
    "state": "Southeastern Anatolia Region",
    "country": "Turkey",
    "formatted": "Bellitaş Höyüğü, Harran, Şanlıurfa, Turkey"
  },
  {
    "id": "51ef6f75a50a66434059c9c8af0c60934240f00103f90137a337170100000092031e4265796b6170c4b173c4b1204d61686d75746fc49f6c75204b756c657369",
    "name": "Beykapısı Mahmutoğlu Kulesi",
    "category": "tourism,tourism.sights,tourism.sights.memorial",
    "latitude": 37.1513687,
    "longitude": 38.7971999,
    "city": "Şanlıurfa",
    "state": "Southeastern Anatolia Region",
    "country": "Turkey",
    "formatted": "Beykapısı Mahmutoğlu Kulesi, Harran Üniversitesi Caddesi, 63210 Şanlıurfa, Turkey"
  },
  {
    "id": "518ba1e6a5df43434059f0d0dcdbe3ad4240f00102f901d106ae100000000092030742697468696173",
    "name": "Bithias",
    "category": "man_made,tourism,tourism.sights,tourism.sights.archaeological_site",
    "latitude": 37.3585162,
    "longitude": 38.5302627,
    "city": "Bozova",
    "state": "Southeastern Anatolia Region",
    "country": "Turkey",
    "formatted": "Bithias, Bozova-Diyarbakır yolu, 63850 Bozova, Turkey"
  },
  {
    "id": "51a88cda58e44d4340596cbe001764f74240f00102f901d5b7cd020000000092030e43656e6465726520427269646765",
    "name": "Cendere Bridge",
    "category": "highway,highway.public,tourism,tourism.sights,tourism.sights.bridge",
    "latitude": 37.9329059,
    "longitude": 38.6084969,
    "city": "Kâhta",
    "state": "Southeastern Anatolia Region",
    "country": "Turkey",
    "formatted": "Cendere Bridge, Severan Bridge, Kâhta, Turkey"
  },
  {
    "id": "51a88cda58e44d4340596cbe001764f74240f00103f9011bc2c13c0200000092030e43656e6465726520427269646765",
    "name": "Cendere Bridge",
    "category": "tourism,tourism.sights",
    "latitude": 37.932742,
    "longitude": 38.6085311,
    "city": "Kâhta",
    "state": "Southeastern Anatolia Region",
    "country": "Turkey",
    "formatted": "Cendere Bridge, Severan Bridge, Kâhta, Turkey"
  },
  {
    "id": "51aa786d80e34d4340595b41679368f74240f00103f901df98e84102000000",
    "name": "Cendere Bridge",
    "category": "tourism,tourism.attraction,tourism.attraction.viewpoint",
    "latitude": 37.9328789,
    "longitude": 38.6085053,
    "city": "Kâhta",
    "state": "Southeastern Anatolia Region",
    "country": "Turkey",
    "formatted": "Cendere Bridge, Severan Bridge, Kâhta, Turkey"
  },
  {
    "id": "515ab1097ab95e4340592e665e526bfd4240f00102f90143a9982600000000",
    "name": "Cyclops Walls",
    "category": "tourism,tourism.attraction,tourism.attraction.artwork",
    "latitude": 37.9797399,
    "longitude": 38.7401292,
    "city": "Kâhta",
    "state": "Southeastern Anatolia Region",
    "country": "Turkey",
    "formatted": "Cyclops Walls, West terrace, Kâhta, Turkey"
  },
  {
    "id": "51c7e5e4ea6c2c434059aebf06a8ba714240f00103f901695ac32201000000920319c3876172786572c3aa7961204172c3ae6e204dc3ae726b616e",
    "name": "Çarxerêya Arîn Mîrkan",
    "category": "tourism,tourism.sights,tourism.sights.memorial",
    "latitude": 36.8885088,
    "longitude": 38.3470739,
    "city": "Kobani",
    "state": "Aleppo Governorate",
    "country": "Syria",
    "formatted": "Çarxerêya Arîn Mîrkan, Areen Mirkan Roundabout, Kobani, Syria"
  },
  {
    "id": "51d59ab6bc3dbc4340593d265809cc944240f00102f901828dd00a0000000092030cc387696d64696e204b616c65",
    "name": "Çimdin Kale",
    "category": "tourism,tourism.attraction,tourism.sights,tourism.sights.castle",
    "latitude": 37.1624767,
    "longitude": 39.4706341,
    "city": "Viranşehir",
    "state": "Southeastern Anatolia Region",
    "country": "Turkey",
    "formatted": "Çimdin Kale, Viranşehir, Şanlıurfa, Turkey"
  },
  {
    "id": "51508734f39961434059594a7c8deefe4240f00102f901e40c64170000000092030d446fc49f75205465726173c4b1",
    "name": "Doğu Terası",
    "category": "tourism,tourism.sights,tourism.sights.archaeological_site,tourism.sights.memorial,tourism.sights.memorial.tumulus",
    "latitude": 37.9916551,
    "longitude": 38.7625107,
    "city": "Pütürge",
    "state": "Eastern Anatolia Region",
    "country": "Turkey",
    "formatted": "Doğu Terası, Pütürge, Malatya, Turkey"
  },
  {
    "id": "512fcece58ea654340597645b8c7d28e4240f00103f9012ec1125901000000",
    "name": "Edessa",
    "category": "tourism,tourism.sights,tourism.sights.castle",
    "latitude": 37.1158075,
    "longitude": 38.7962142,
    "city": "Eyyübiye",
    "state": "Southeastern Anatolia Region",
    "country": "Turkey",
    "formatted": "Edessa, Eyyüp Peygamber Caddesi, 63200 Eyyübiye, Turkey"
  },
  {
    "id": "5119e2b3d02963434059f9f8b53d8b8f4240f00103f9012fc1125901000000",
    "name": "Edessa, Nemrud Tahti",
    "category": "tourism,tourism.sights,tourism.sights.castle",
    "latitude": 37.1214368,
    "longitude": 38.7747136,
    "city": "Eyyübiye",
    "state": "Southeastern Anatolia Region",
    "country": "Turkey",
    "formatted": "Edessa, Nemrud Tahti, Eyyübiye Bulvarı, 63210 Eyyübiye, Turkey"
  },
  {
    "id": "5168e77b4dd053434059745ecf87c2f84240f00102f9016a0361100000000092030945736b69204b616c65",
    "name": "Eski Kale",
    "category": "tourism,tourism.sights,tourism.sights.castle",
    "latitude": 37.9434366,
    "longitude": 38.6547944,
    "city": "Kâhta",
    "state": "Southeastern Anatolia Region",
    "country": "Turkey",
    "formatted": "Eski Kale, 02-09, Kâhta, Turkey"
  },
  {
    "id": "518899134b2836434059c854650cbdee4240f00102f9012672dc430000000092030e45736b69204c6f6a6d616e6c6172",
    "name": "Eski Lojmanlar",
    "category": "tourism,tourism.sights,tourism.sights.ruines",
    "latitude": 37.8651443,
    "longitude": 38.4231047,
    "city": "Adıyaman",
    "state": "Southeastern Anatolia Region",
    "country": "Turkey",
    "formatted": "Eski Lojmanlar, Komir1, Adıyaman, Turkey"
  },
  {
    "id": "51a411d841ca84434059f067a1ca7af34240f00103f9013527e8460200000092031045757068726174657320436c69666673",
    "name": "Euphrates Cliffs",
    "category": "tourism,tourism.attraction,tourism.attraction.viewpoint",
    "latitude": 37.9021848,
    "longitude": 39.0374224,
    "city": "Siverek",
    "state": "Southeastern Anatolia Region",
    "country": "Turkey",
    "formatted": "Euphrates Cliffs, D360, Siverek, Turkey"
  },
  {
    "id": "5198261186a683434059dc16d1cb28fa4240f00103f901bd66e8460200000092031045757068726174657320436c69666673",
    "name": "Euphrates Cliffs",
    "category": "tourism,tourism.attraction,tourism.attraction.viewpoint",
    "latitude": 37.95437,
    "longitude": 39.0285194,
    "city": "Gerger",
    "state": "Southeastern Anatolia Region",
    "country": "Turkey",
    "formatted": "Euphrates Cliffs, Gerger, Adıyaman, Turkey"
  },
  {
    "id": "51aba7a0ec7783434059888fb54714f34240f00103f9012c78e8460200000092031045757068726174657320436c69666673",
    "name": "Euphrates Cliffs",
    "category": "tourism,tourism.attraction,tourism.attraction.viewpoint",
    "latitude": 37.8990564,
    "longitude": 39.0270973,
    "city": "Siverek",
    "state": "Southeastern Anatolia Region",
    "country": "Turkey",
    "formatted": "Euphrates Cliffs, D360, Siverek, Turkey"
  },
  {
    "id": "51783cd2857d2a43405960a016cc29d44240f00102f901811945230000000092031547617a6968616e20446564652054c3bc7262657369",
    "name": "Gazihan Dede Türbesi",
    "category": "building,building.historic,tourism,tourism.sights,tourism.sights.memorial,tourism.sights.memorial.tomb",
    "latitude": 37.6575256,
    "longitude": 38.3319557,
    "city": "Adıyaman",
    "state": "Southeastern Anatolia Region",
    "country": "Turkey",
    "formatted": "Gazihan Dede Türbesi, 02-50, Adıyaman, Turkey"
  },
  {
    "id": "513c4926000776434059480e842fa79c4240f00102f901262569070000000092030d47c3b662656b6c692054657065",
    "name": "Göbekli Tepe",
    "category": "heritage,leisure,leisure.park,leisure.park.nature_reserve,man_made,natural,natural.protected_area,tourism,tourism.attraction,tourism.sights,tourism.sights.archaeological_site",
    "latitude": 37.2238521,
    "longitude": 38.9220886,
    "city": "Haliliye",
    "state": "Southeastern Anatolia Region",
    "country": "Turkey",
    "formatted": "Göbekli Tepe, 63290 Haliliye, Turkey"
  },
  {
    "id": "51f1b5733211764340590aa60775919c4240f00102f901c2caec1d0000000092030c47c3b662656b6c6974657065",
    "name": "Göbeklitepe",
    "category": "building,building.historic,building.tourism,tourism,tourism.attraction,tourism.sights,tourism.sights.ruines",
    "latitude": 37.223189,
    "longitude": 38.9223998,
    "city": "Haliliye",
    "state": "Southeastern Anatolia Region",
    "country": "Turkey",
    "formatted": "Gobeklitepe Archaeological Site, Göbeklitepe A B C Tapınak alanı, 63290 Haliliye, Turkey"
  },
  {
    "id": "514a77678b1565434059c072c2cc08934240f00101f9017d29d2000000000092030a47756d72756b2048616e",
    "name": "Gumruk Han",
    "category": "building,building.commercial,building.historic,tourism,tourism.sights",
    "latitude": 37.1487061,
    "longitude": 38.78972,
    "city": "Eyyübiye",
    "state": "Southeastern Anatolia Region",
    "country": "Turkey",
    "formatted": "Gumruk Han, Balıklıgöl Caddesi, 63210 Eyyübiye, Turkey"
  },
  {
    "id": "51941f1b25c626434059fc7ac15579764240f00102f901f96ab20d0000000092031547c3bc6e6562616b616e2048c3b679c3bcc49fc3bc",
    "name": "Günebakan Höyüğü",
    "category": "man_made,tourism,tourism.sights,tourism.sights.archaeological_site",
    "latitude": 36.9255778,
    "longitude": 38.3029219,
    "city": "Suruç",
    "state": "Southeastern Anatolia Region",
    "country": "Turkey",
    "formatted": "Günebakan Höyüğü, Suruç, Şanlıurfa, Turkey"
  },
  {
    "id": "510a5416a72ba9434059ac5257f9afe04240f00102f901fff2324f00000000920316486163c4b12050c4b16e617220c38765c59f6d657369",
    "name": "Hacı Pınar Çeşmesi",
    "category": "building,building.historic,tourism,tourism.sights",
    "latitude": 37.7553703,
    "longitude": 39.3216447,
    "city": "Siverek",
    "state": "Southeastern Anatolia Region",
    "country": "Turkey",
    "formatted": "Hacı Pınar Çeşmesi, Esmerçayı Caddesi, Siverek, Turkey"
  },
  {
    "id": "510eb0fb3328654340590fcc062ba9934240f00103f901376deb76000000009203184861636920486166697a2041686d657420456666656e6469",
    "name": "Haci Hafiz Ahmet Effendi",
    "category": "tourism,tourism.sights,tourism.sights.memorial,tourism.sights.memorial.tomb",
    "latitude": 37.1536001,
    "longitude": 38.7902894,
    "city": "Eyyübiye",
    "state": "Southeastern Anatolia Region",
    "country": "Turkey",
    "formatted": "Haci Hafiz Ahmet Effendi, Sarayönü Caddesi, 63210 Eyyübiye, Turkey"
  },
  {
    "id": "51c64d68ed11814340597bcf0e4581c24240f00103f90112a574760000000092031248616369204f6d65722054c3bc7262657369",
    "name": "Haci Omer Türbesi",
    "category": "tourism,tourism.sights,tourism.sights.memorial,tourism.sights.memorial.monument",
    "latitude": 37.51957,
    "longitude": 39.0083596,
    "city": "Hilvan",
    "state": "Southeastern Anatolia Region",
    "country": "Turkey",
    "formatted": "Haci Omer Shrine, Gölcük yolu, Hilvan, Turkey"
  },
  {
    "id": "51a2adef688866434059b49b7c78968a4240f00103f9010c7cdbd20200000092030b48616d7a616e2054657065",
    "name": "Hamzan Tepe",
    "category": "tourism,tourism.sights,tourism.sights.archaeological_site",
    "latitude": 37.082717,
    "longitude": 38.8010379,
    "city": "Eyyübiye",
    "state": "Southeastern Anatolia Region",
    "country": "Turkey",
    "formatted": "Hamzan Tepe, Eyyübiye Bulvarı, 63210 Eyyübiye, Turkey"
  },
  {
    "id": "5140a60747b1a9434059535b894fcb864240f00102f9017f925c17000000009203094861726162656c6572",
    "name": "Harabeler",
    "category": "tourism,tourism.sights,tourism.sights.ruines",
    "latitude": 37.0530796,
    "longitude": 39.3257226,
    "city": "Haliliye",
    "state": "Southeastern Anatolia Region",
    "country": "Turkey",
    "formatted": "Harabeler, Haliliye, Şanlıurfa, Turkey"
  },
  {
    "id": "51f4a403e252a0434059d2ee99a03c864240f00102f901c62df53a00000000920312486172626574737576616e20546570657369",
    "name": "Harbetsuvan Tepesi",
    "category": "man_made,tourism,tourism.sights,tourism.sights.archaeological_site",
    "latitude": 37.0487252,
    "longitude": 39.2525294,
    "city": "Eyyübiye",
    "state": "Southeastern Anatolia Region",
    "country": "Turkey",
    "formatted": "Harbetsuvan Tepesi, Eyyübiye, Şanlıurfa, Turkey"
  },
  {
    "id": "519d59e8121e84434059aa02251fbb6e4240f00102f90136e5e7110000000092030648617272616e",
    "name": "Harran",
    "category": "tourism,tourism.sights,tourism.sights.ruines",
    "latitude": 36.8650855,
    "longitude": 39.0321678,
    "city": "Harran",
    "state": "Southeastern Anatolia Region",
    "country": "Turkey",
    "formatted": "63-27, Harran, Turkey"
  },
  {
    "id": "51285bc933d483434059f3c2fb7a746e4240f00103f901121b583a0100000092030648617272616e",
    "name": "Harran",
    "category": "tourism,tourism.sights,tourism.sights.archaeological_site",
    "latitude": 36.8629297,
    "longitude": 39.0299134,
    "city": "Harran",
    "state": "Southeastern Anatolia Region",
    "country": "Turkey",
    "formatted": "63-27, Harran, Turkey"
  },
  {
    "id": "515479a678d18343405950fdb9826d6e4240f00102f9016cab64100000000092031148617272616e2048c3b679c3bcc49fc3bc",
    "name": "Harran Höyüğü",
    "category": "man_made,tourism,tourism.sights,tourism.sights.archaeological_site",
    "latitude": 36.862717,
    "longitude": 39.0298301,
    "city": "Harran",
    "state": "Southeastern Anatolia Region",
    "country": "Turkey",
    "formatted": "Harran Höyüğü, 63-27, Harran, Turkey"
  },
  {
    "id": "517a8e20298784434059c0bf370c0b6e4240f00102f9016dab64100000000092030d48617272616e204b616c657369",
    "name": "Harran Kalesi",
    "category": "tourism,tourism.attraction,tourism.sights,tourism.sights.castle",
    "latitude": 36.8597122,
    "longitude": 39.0353748,
    "city": "Harran",
    "state": "Southeastern Anatolia Region",
    "country": "Turkey",
    "formatted": "Harran Kalesi, 63-27, Harran, Turkey"
  },
  {
    "id": "51fc66ac472b83434059996f8756dd6e4240f00103f90128942a7e020000009203174861796174692048617272616e692054c3bc7262657369",
    "name": "Hayati Harrani Türbesi",
    "category": "tourism,tourism.sights,tourism.sights.memorial,tourism.sights.memorial.tomb",
    "latitude": 36.8661297,
    "longitude": 39.0247583,
    "city": "Harran",
    "state": "Southeastern Anatolia Region",
    "country": "Turkey",
    "formatted": "Hayati Harrani Türbesi, 63-27, Harran, Turkey"
  },
  {
    "id": "515c340983d7274340593b1a91c140ed4240f00103f901a298395902000000920316486179646172616e204b617961204d657a61726c616e",
    "name": "Haydaran Kaya Mezarlan",
    "category": "tourism,tourism.attraction,tourism.sights,tourism.sights.memorial,tourism.sights.memorial.tomb",
    "latitude": 37.8535387,
    "longitude": 38.3112644,
    "city": "Adıyaman",
    "state": "Southeastern Anatolia Region",
    "country": "Turkey",
    "formatted": "Haydaran Kaya Mezarlan, 02-02, Adıyaman, Turkey"
  },
  {
    "id": "51b9c08af8f3534340594aa12c87ccf84240f00103f90102fbcc2101000000",
    "name": "Herakles relief",
    "category": "tourism,tourism.attraction,tourism.attraction.artwork",
    "latitude": 37.9437417,
    "longitude": 38.6558829,
    "city": "Kâhta",
    "state": "Southeastern Anatolia Region",
    "country": "Turkey",
    "formatted": "Herakles relief, 02-09, Kâhta, Turkey"
  },
  {
    "id": "511498013167244340592a5d11a04bd14240f00102f901121f991e0000000092030748c3b679c3bc6b",
    "name": "Höyük",
    "category": "man_made,tourism,tourism.sights,tourism.sights.archaeological_site",
    "latitude": 37.6351204,
    "longitude": 38.2843992,
    "city": "Adıyaman",
    "state": "Southeastern Anatolia Region",
    "country": "Turkey",
    "formatted": "Höyük, 02-50, Adıyaman, Turkey"
  },
  {
    "id": "514ceeecacf465434059cab55ab9f2904240f00102f901792cca200000000092031f487a2e2045797975702028412e532e2920536162c4b172204d616b616dc4b1",
    "name": "Hz. Eyyup (A.S.) Sabır Makamı",
    "category": "building,building.historic,tourism,tourism.sights",
    "latitude": 37.1324074,
    "longitude": 38.7965294,
    "city": "Eyyübiye",
    "state": "Southeastern Anatolia Region",
    "country": "Turkey",
    "formatted": "Eyup AS Prophet Patient Cave, Eyyüp Peygamber Caddesi, 63200 Eyyübiye, Turkey"
  },
  {
    "id": "51964cbaea5c42434059fb835b87b4d14240f00102f901be89aa3200000000920328487a2e2053616676616e2042696e204d75617474616c2054c3bc7262657369202853616861626529",
    "name": "Hz. Safvan Bin Muattal Türbesi (Sahabe)",
    "category": "building,building.historic,tourism,tourism.sights,tourism.sights.memorial,tourism.sights.memorial.tomb",
    "latitude": 37.6383218,
    "longitude": 38.5184606,
    "city": "Samsat",
    "state": "Southeastern Anatolia Region",
    "country": "Turkey",
    "formatted": "Hz. Safvan Bin Muattal Türbesi (Sahabe), Samsat Yolu, Samsat, Turkey"
  },
  {
    "id": "51055e77048187434059175ea79ce5fa4240f00103f9015d68e84602000000920311496d707265737369766520436c69666673",
    "name": "Impressive Cliffs",
    "category": "tourism,tourism.attraction",
    "latitude": 37.9601322,
    "longitude": 39.0586248,
    "city": "Siverek",
    "state": "Southeastern Anatolia Region",
    "country": "Turkey",
    "formatted": "Impressive Cliffs, Siverek, Şanlıurfa, Turkey"
  },
  {
    "id": "51a677f17edc66434059b8b51ee4ab9d4240f00103f901b18878b302000000920306c4b06b696572",
    "name": "İkier",
    "category": "tourism,tourism.sights,tourism.sights.memorial,tourism.sights.memorial.monument",
    "latitude": 37.2318082,
    "longitude": 38.803604,
    "city": "Karaköprü",
    "state": "Southeastern Anatolia Region",
    "country": "Turkey",
    "formatted": "İkier, 603. Cadde, 63320 Karaköprü, Turkey"
  },
  {
    "id": "510506460bbea643405907278c75bb8b4240f00102f901eddef43a0000000092030c4b61726168616e2054657065",
    "name": "Karahan Tepe",
    "category": "man_made,tourism,tourism.sights,tourism.sights.archaeological_site",
    "latitude": 37.0916583,
    "longitude": 39.3026747,
    "city": "Haliliye",
    "state": "Southeastern Anatolia Region",
    "country": "Turkey",
    "formatted": "Karahan Tepe, Haliliye, Şanlıurfa, Turkey"
  },
  {
    "id": "51209944820a2e43405985aa2aafcb844240f00102f901fe849a120000000092030b4b61726168c3bc79c3bc6b",
    "name": "Karahüyük",
    "category": "tourism,tourism.attraction,tourism.sights,tourism.sights.archaeological_site",
    "latitude": 37.037466,
    "longitude": 38.3596957,
    "city": "Suruç",
    "state": "Southeastern Anatolia Region",
    "country": "Turkey",
    "formatted": "Karahüyük, Gaziantep-Urfa yolu, Suruç, Turkey"
  },
  {
    "id": "517221df8aeab7434059b59217edf1b94240f00102f90142e5d40a000000009203144b6172616b65c3a7692048c3b679c3bcc49fc3bc",
    "name": "Karakeçi Höyüğü",
    "category": "man_made,tourism,tourism.sights,tourism.sights.archaeological_site",
    "latitude": 37.4526955,
    "longitude": 39.4368452,
    "city": "Siverek",
    "state": "Southeastern Anatolia Region",
    "country": "Turkey",
    "formatted": "Karakeçi Höyüğü, Siverek-Viranşehir Yolu, Siverek, Turkey"
  },
  {
    "id": "51abaeaa06414b434059f1d0fb9845ef4240f00102f90172036110000000009203154b6172616b75c59f2054c3bc6dc3bc6cc3bc73c3bc",
    "name": "Karakuş Tümülüsü",
    "category": "man_made,tourism,tourism.sights,tourism.sights.archaeological_site",
    "latitude": 37.8693115,
    "longitude": 38.5879219,
    "city": "Kâhta",
    "state": "Southeastern Anatolia Region",
    "country": "Turkey",
    "formatted": "Karakuş Tumulus, 02-03, Kâhta, Turkey"
  },
  {
    "id": "513b9281f22d4b434059408210621def4240f00103f9019db0c64a020000009203154b6172616b75c59f2054c3bc6dc3bc6cc3bc73c3bc",
    "name": "Karakuş Tümülüsü",
    "category": "tourism,tourism.attraction",
    "latitude": 37.8680842,
    "longitude": 38.5873397,
    "city": "Kâhta",
    "state": "Southeastern Anatolia Region",
    "country": "Turkey",
    "formatted": "Karakus Tumulus, 02-03, Kâhta, Turkey"
  },
  {
    "id": "51c53e5ccd95f2424059158256c565b74240f00102f9014d84a93d000000009203114b6172617375204bc3b67072c3bc73c3bc",
    "name": "Karasu Köprüsü",
    "category": "highway,highway.track,tourism,tourism.sights,tourism.sights.bridge",
    "latitude": 37.4328572,
    "longitude": 37.8951349,
    "city": "Araban",
    "state": "Southeastern Anatolia Region",
    "country": "Turkey",
    "formatted": "Karasu Köprüsü, 27650 Araban, Turkey"
  },
  {
    "id": "51394b2571446c43405975dd369b588f4240f00102f901866cef0a0000000092030d4b617a616e652048c3b679756b",
    "name": "Kazane Höyuk",
    "category": "man_made,tourism,tourism.attraction,tourism.sights,tourism.sights.archaeological_site",
    "latitude": 37.1198916,
    "longitude": 38.8458387,
    "city": "Şanlıurfa",
    "state": "Southeastern Anatolia Region",
    "country": "Turkey",
    "formatted": "Kazane Höyuk, Footbridge, 63050 Şanlıurfa, Turkey"
  },
  {
    "id": "5132a7f25a5893434059c904ea2d54e64240f00102f9016175bd2a000000009203094b657069726b757975",
    "name": "Kepirkuyu",
    "category": "tourism,tourism.sights,tourism.sights.ruines",
    "latitude": 37.7994252,
    "longitude": 39.1510463,
    "city": "Siverek",
    "state": "Southeastern Anatolia Region",
    "country": "Turkey",
    "formatted": "Kepirkuyu, Siverek, Şanlıurfa, Turkey"
  },
  {
    "id": "51f13f434992ed424059477d8f1bd9c74240f00103f9011742653f0000000092030d4b657973756e204b616c657369",
    "name": "Keysun Kalesi",
    "category": "man_made,tourism,tourism.sights,tourism.sights.archaeological_site",
    "latitude": 37.5613131,
    "longitude": 37.8560268,
    "city": "Besni",
    "state": "Southeastern Anatolia Region",
    "country": "Turkey",
    "formatted": "Fortress of Kaysun, Çakırhüyük yolu, Besni, Turkey"
  },
  {
    "id": "512200e642e2ca434059a471f8dc09d74240f00102f901543cbd2a000000009203064bc4b172616e",
    "name": "Kıran",
    "category": "tourism,tourism.sights,tourism.sights.ruines",
    "latitude": 37.6799885,
    "longitude": 39.5850299,
    "city": "Siverek",
    "state": "Southeastern Anatolia Region",
    "country": "Turkey",
    "formatted": "Kıran, Siverek, Şanlıurfa, Turkey"
  },
  {
    "id": "512ca2aaa55e1c434059224b3fdf968f4240f00102f901a9be9b12000000009203144bc4b173616b7579752048c3b679c3bcc49fc3bc",
    "name": "Kısakuyu Höyüğü",
    "category": "man_made,tourism,tourism.sights,tourism.sights.archaeological_site",
    "latitude": 37.1217918,
    "longitude": 38.2216384,
    "city": "Birecik",
    "state": "Southeastern Anatolia Region",
    "country": "Turkey",
    "formatted": "Kısakuyu Höyüğü, Adana-Şanlıurfa Otoyolu, Birecik, Turkey"
  },
  {
    "id": "510f97c1bdd7144340599b7e632310b94240f00102f901f667b113000000009203144bc4b17ac4b16c696e204bc3b67072c3bc73c3bc",
    "name": "Kızılin Köprüsü",
    "category": "highway,highway.footway,tourism,tourism.sights,tourism.sights.bridge",
    "latitude": 37.4460531,
    "longitude": 38.1631947,
    "city": "Besni",
    "state": "Southeastern Anatolia Region",
    "country": "Turkey",
    "formatted": "Kızılin Köprüsü, Kızılin Bridge, Besni, Turkey"
  },
  {
    "id": "517214200a66644340597c69744f68934240f00103f9017eb16d34020000009203174bc4b17ac4b16c6b6f79756e204e656b726f706f6cc3bc",
    "name": "Kızılkoyun Nekropolü",
    "category": "tourism,tourism.attraction",
    "latitude": 37.1516208,
    "longitude": 38.784364,
    "city": "Eyyübiye",
    "state": "Southeastern Anatolia Region",
    "country": "Turkey",
    "formatted": "Kızılkoyun Necropolis, Haleplibahçe Caddesi, 63210 Eyyübiye, Turkey"
  },
  {
    "id": "5144b63d8befa8434059dd4cd48dc1e04240f00103f90160418d2b010000009203154b6fc3a7616c6920426162612054c3bc7262657369",
    "name": "Koçali Baba Türbesi",
    "category": "tourism,tourism.sights,tourism.sights.memorial,tourism.sights.memorial.tomb",
    "latitude": 37.7559068,
    "longitude": 39.3198103,
    "city": "Siverek",
    "state": "Southeastern Anatolia Region",
    "country": "Turkey",
    "formatted": "Koçali Baba Türbesi, Hürriyet Caddesi, Siverek, Turkey"
  },
  {
    "id": "510ed432e07b5c4340599887ab62e0a44240f00102f9014486b73f000000009203094b6f72756b657a656e",
    "name": "Korukezen",
    "category": "man_made,tourism,tourism.sights,tourism.sights.archaeological_site",
    "latitude": 37.2880977,
    "longitude": 38.7225304,
    "city": "Karaköprü",
    "state": "Southeastern Anatolia Region",
    "country": "Turkey",
    "formatted": "Korukezen, Şanlıurfa-Adıyaman yolu, Karaköprü, Turkey"
  },
  {
    "id": "51ce43ccb9d775434059707e582ec0724240f00102f901e0366410000000009203074b6f72756b6c75",
    "name": "Koruklu",
    "category": "man_made,tourism,tourism.attraction,tourism.sights,tourism.sights.archaeological_site",
    "latitude": 36.8964899,
    "longitude": 38.9206459,
    "city": "Akçakale",
    "state": "Southeastern Anatolia Region",
    "country": "Turkey",
    "formatted": "Koruklu, Şanlıurfa-Suriye yolu, Akçakale, Turkey"
  },
  {
    "id": "5124da1963278d43405928897bc9907a4240f00102f9017a67ad10000000009203124bc3bc70656c692048c3b679c3bcc49fc3bc",
    "name": "Küpeli Höyüğü",
    "category": "man_made,tourism,tourism.sights,tourism.sights.archaeological_site",
    "latitude": 36.9575435,
    "longitude": 39.1027645,
    "city": "Eyyübiye",
    "state": "Southeastern Anatolia Region",
    "country": "Turkey",
    "formatted": "Küpeli Höyüğü, Eyyübiye, Şanlıurfa, Turkey"
  },
  {
    "id": "516857c62bb55e43405900e013e577fd4240f00103f9015440756a0100000092030a4c656f2072656c696566",
    "name": "Leo relief",
    "category": "tourism,tourism.attraction,tourism.attraction.artwork",
    "latitude": 37.9802214,
    "longitude": 38.7399039,
    "city": "Kâhta",
    "state": "Southeastern Anatolia Region",
    "country": "Turkey",
    "formatted": "Leo relief, West terrace, Kâhta, Turkey"
  },
  {
    "id": "5126075a607e2d434059081c36f1c4e04240f00102f901b4569913000000009203194d61686d756420456c20456e736172692054c3bc7262657369",
    "name": "Mahmud El Ensari Türbesi",
    "category": "building,building.historic,tourism,tourism.sights,tourism.sights.memorial,tourism.sights.memorial.tomb",
    "latitude": 37.7560102,
    "longitude": 38.3554192,
    "city": "Adıyaman",
    "state": "Southeastern Anatolia Region",
    "country": "Turkey",
    "formatted": "Mahmud El Ensari Türbesi, Adıyaman-Diyarbakır yolu, 02100 Adıyaman, Turkey"
  },
  {
    "id": "517e051f3988364340594f20796fb1ee4240f00103f901dde611e70200000092031e4dc4b173c4b1726cc4b120c59e61682041686d65742054c3bc7262657369",
    "name": "Mısırlı Şah Ahmet Türbesi",
    "category": "tourism,tourism.sights,tourism.sights.memorial,tourism.sights.memorial.tomb",
    "latitude": 37.8647899,
    "longitude": 38.4260322,
    "city": "Adıyaman",
    "state": "Southeastern Anatolia Region",
    "country": "Turkey",
    "formatted": "Mısırlı Şah Ahmet Türbesi, Komir1, Adıyaman, Turkey"
  },
  {
    "id": "5162cde1271165434059560e86272a944240f00102f901680d363b0000000092030c4d696c6c65742048616ec4b1",
    "name": "Millet Hanı",
    "category": "building,building.historic,tourism,tourism.sights",
    "latitude": 37.1575365,
    "longitude": 38.7895861,
    "city": "Şanlıurfa",
    "state": "Southeastern Anatolia Region",
    "country": "Turkey",
    "formatted": "Millet Hanı, 11 Nisan Fuar Caddesi, 63100 Şanlıurfa, Turkey"
  },
  {
    "id": "51b0f897eebf5e4340590725d46185fd4240f00103f90156cfb40a010000009203144d6f756e74204e656d7275742054756d756c7573",
    "name": "Mount Nemrut Tumulus",
    "category": "tourism,tourism.attraction,tourism.attraction.viewpoint",
    "latitude": 37.980633,
    "longitude": 38.7402323,
    "city": "Kâhta",
    "state": "Southeastern Anatolia Region",
    "country": "Turkey",
    "formatted": "The Mount Nemrut Tumulus, West terrace, Kâhta, Turkey"
  },
  {
    "id": "515e97e26bd25e434059128bd69585fd4240f00102f901a90461100000000092030d4e656d727574204461c49fc4b1",
    "name": "Nemrut Dağı",
    "category": "man_made,tourism,tourism.attraction,tourism.sights,tourism.sights.archaeological_site,tourism.sights.memorial,tourism.sights.memorial.tumulus",
    "latitude": 37.9806392,
    "longitude": 38.7407966,
    "city": "Kâhta",
    "state": "Southeastern Anatolia Region",
    "country": "Turkey",
    "formatted": "Nimrud Dag, Kâhta, Adıyaman, Turkey"
  },
  {
    "id": "51b3890efcd65e4340598484ad1d7bfd4240f00102f901107c1c3a0000000092030d4e656d727574204461c49fc4b1",
    "name": "Nemrut Dağı",
    "category": "heritage,heritage.unesco,leisure,leisure.park,leisure.park.nature_reserve,natural,natural.protected_area",
    "latitude": 37.9803197,
    "longitude": 38.7409358,
    "city": "Kâhta",
    "state": "Southeastern Anatolia Region",
    "country": "Turkey",
    "formatted": "Nemrut Dağ, Kâhta, Adıyaman, Turkey"
  },
  {
    "id": "515f8319ae694d43405943fe86cc4bc24240f00103f901c09c5b3e0100000092030d4e6576616cc4b120c3876f7269",
    "name": "Nevalı Çori",
    "category": "tourism,tourism.attraction,tourism.sights,tourism.sights.archaeological_site",
    "latitude": 37.5179382,
    "longitude": 38.6047876,
    "city": "Karaköprü",
    "state": "Southeastern Anatolia Region",
    "country": "Turkey",
    "formatted": "Nevalı Çori, gazibey Koyu Yolu, Karaköprü, Turkey"
  },
  {
    "id": "51e45bc41ca94a4340595ea6337337c34240f00103f90111e088730000000092030c4e6576616c6920c3876f7269",
    "name": "Nevali Çori",
    "category": "tourism,tourism.sights,tourism.sights.archaeological_site",
    "latitude": 37.5251297,
    "longitude": 38.5832859,
    "city": "Karaköprü",
    "state": "Southeastern Anatolia Region",
    "country": "Turkey",
    "formatted": "Nevali Çori, gazibey Koyu Yolu, Karaköprü, Turkey"
  },
  {
    "id": "5114c2b4b97b0e434059583e03931ba54240f00103f9015e8add2f0200000092030f4e7568727574204b696c6973657369",
    "name": "Nuhrut Kilisesi",
    "category": "religion,religion.place_of_worship,religion.place_of_worship.christianity,tourism,tourism.attraction,tourism.sights.place_of_worship",
    "latitude": 37.289904,
    "longitude": 38.1131508,
    "city": "Halfeti",
    "state": "Southeastern Anatolia Region",
    "country": "Turkey",
    "formatted": "Nuhrut Kilisesi, 63-78, Halfeti, Turkey"
  },
  {
    "id": "51e9b6e974c57d434059fc27cdbdd1c34240f00103f90113a5747600000000",
    "name": "Old Hilvan Hilltop Fortress",
    "category": "tourism,tourism.sights,tourism.sights.archaeological_site",
    "latitude": 37.5298383,
    "longitude": 38.9825884,
    "city": "Hilvan",
    "state": "Southeastern Anatolia Region",
    "country": "Turkey",
    "formatted": "Old Hilvan Hilltop Fortress, walking path, Hilvan, Turkey"
  },
  {
    "id": "51c5c0dfd4ac7b434059ea3b72f8a4bd4240f00103f9019fc24377000000009203154f6c6420686f75736520666f756e646174696f6e73",
    "name": "Old house foundations",
    "category": "tourism,tourism.sights,tourism.sights.ruines",
    "latitude": 37.481597,
    "longitude": 38.9662119,
    "city": "Hilvan",
    "state": "Southeastern Anatolia Region",
    "country": "Turkey",
    "formatted": "Old house foundations, Diyarbakır-Şanlıurfa yolu, Hilvan, Turkey"
  },
  {
    "id": "51961c1c9194364340593e20b8adadee4240f00102f9010072dc43000000009203194f6c642057617465722050756d70696e672053746174696f6e",
    "name": "Old Water Pumping Station",
    "category": "tourism,tourism.sights,tourism.sights.ruines",
    "latitude": 37.8646753,
    "longitude": 38.4264089,
    "city": "Adıyaman",
    "state": "Southeastern Anatolia Region",
    "country": "Turkey",
    "formatted": "Old Water Pumping Station, Komir1, Adıyaman, Turkey"
  },
  {
    "id": "51290e5652dd2643405922178cf4a2e94240f00103f90122b9c4d90100000092031350616c616e6cc4b1204d61c49f61726173c4b1",
    "name": "Palanlı Mağarası",
    "category": "access,access.yes,natural,natural.mountain,natural.mountain.cave_entrance,no_fee,no_fee.no,tourism,tourism.sights",
    "latitude": 37.8252855,
    "longitude": 38.3036292,
    "city": "Adıyaman",
    "state": "Southeastern Anatolia Region",
    "country": "Turkey",
    "formatted": "Palanlı Mağarası, Adıyaman - Çelikhan yolu, 02100 Adıyaman, Turkey"
  },
  {
    "id": "510f0a4ad1ca4d4340596849970975f74240f00103f90165a704480200000092030850616e6f72616d61",
    "name": "Panorama",
    "category": "tourism,tourism.attraction,tourism.attraction.viewpoint",
    "latitude": 37.9332592,
    "longitude": 38.607752,
    "city": "Kâhta",
    "state": "Southeastern Anatolia Region",
    "country": "Turkey",
    "formatted": "Panorama, Severan Bridge, Kâhta, Turkey"
  },
  {
    "id": "51a88aa26ea2264340593fc550f86ce54240f00102f90136b1621000000000920310506572726520416e74696b204b656e74",
    "name": "Perre Antik Kent",
    "category": "tourism,tourism.attraction,tourism.sights,tourism.sights.archaeological_site,tourism.sights.memorial,tourism.sights.memorial.necropolis",
    "latitude": 37.792388,
    "longitude": 38.301832,
    "city": "Adıyaman",
    "state": "Southeastern Anatolia Region",
    "country": "Turkey",
    "formatted": "Perre Antik Kent, Adıyaman - Çelikhan yolu, 02100 Adıyaman, Turkey"
  },
  {
    "id": "51c9ba2473d1264340599b20634e86e54240f00103f90192d8664b02000000920310506572726520416e74696b204b656e74",
    "name": "Perre Antik Kent",
    "category": "tourism,tourism.attraction,tourism.sights,tourism.sights.archaeological_site,tourism.sights.memorial,tourism.sights.memorial.necropolis",
    "latitude": 37.7931612,
    "longitude": 38.3032669,
    "city": "Adıyaman",
    "state": "Southeastern Anatolia Region",
    "country": "Turkey",
    "formatted": "Perre Antik Kent, Adıyaman - Çelikhan yolu, 02100 Adıyaman, Turkey"
  },
  {
    "id": "51a6d189a999644340597eff48b489934240f00103f9015b126e340200000092031d70726f74657374616e742063687572636820696e207468652070617374",
    "name": "protestant church in the past",
    "category": "tourism,tourism.attraction",
    "latitude": 37.1526399,
    "longitude": 38.7859394,
    "city": "Eyyübiye",
    "state": "Southeastern Anatolia Region",
    "country": "Turkey",
    "formatted": "protestant church in the past, Vali Fuat Caddesi, 63210 Eyyübiye, Turkey"
  },
  {
    "id": "51b0c4a8103464434059808c366a2a934240f00103f9015f8b2d780000000092030a526f6d616e2042617468",
    "name": "Roman Bath",
    "category": "tourism,tourism.sights,tourism.sights.archaeological_site",
    "latitude": 37.1497319,
    "longitude": 38.7828389,
    "city": "Eyyübiye",
    "state": "Southeastern Anatolia Region",
    "country": "Turkey",
    "formatted": "Roman Bath, Haleplibahçe Caddesi, 63210 Eyyübiye, Turkey"
  },
  {
    "id": "51cf27f224e9224340599e4ea400ace14240f00103f901a1a020650100000092030b53616174204b756c657369",
    "name": "Saat Kulesi",
    "category": "tourism,tourism.sights,tourism.sights.memorial,tourism.sights.memorial.monument",
    "latitude": 37.7630616,
    "longitude": 38.27274,
    "city": "Adıyaman",
    "state": "Southeastern Anatolia Region",
    "country": "Turkey",
    "formatted": "Saat Kulesi, Atatürk Bulvarı, 02200 Adıyaman, Turkey"
  },
  {
    "id": "51421e66d421a9434059a4162207dbe04240f00103f90161418d2b0100000092030b536161746c69204b756c65",
    "name": "Saatli Kule",
    "category": "tourism,tourism.sights,tourism.sights.memorial",
    "latitude": 37.7566842,
    "longitude": 39.3213449,
    "city": "Siverek",
    "state": "Southeastern Anatolia Region",
    "country": "Turkey",
    "formatted": "Saatli Kule, Esmerçayı Caddesi, Siverek, Turkey"
  },
  {
    "id": "510906c6b079bf434059f80d8f8f71974240f00103f901a993dbd20200000092030a53656665722054657065",
    "name": "Sefer Tepe",
    "category": "tourism,tourism.sights,tourism.sights.archaeological_site",
    "latitude": 37.1831531,
    "longitude": 39.4959012,
    "city": "Viranşehir",
    "state": "Southeastern Anatolia Region",
    "country": "Turkey",
    "formatted": "Sefer Tepe, Şanlıurfa-Mardin yolu, Viranşehir, Turkey"
  },
  {
    "id": "519d3c7661b5be434059ba9123d40c964240f00103f9018a6132fb0200000092030a53656665722054657065",
    "name": "Sefer Tepe",
    "category": "tourism,tourism.sights,tourism.sights.archaeological_site",
    "latitude": 37.1722665,
    "longitude": 39.4899103,
    "city": "Viranşehir",
    "state": "Southeastern Anatolia Region",
    "country": "Turkey",
    "formatted": "Sefer Tepe, Şanlıurfa-Mardin yolu, Viranşehir, Turkey"
  },
  {
    "id": "51e21ca69483894340590a685296a17c4240f00102f9017b67ad100000000092031653656b73656ec3b672656e2048c3b679c3bcc49fc3bc",
    "name": "Seksenören Höyüğü",
    "category": "man_made,tourism,tourism.sights,tourism.sights.archaeological_site",
    "latitude": 36.9736813,
    "longitude": 39.074328,
    "city": "Eyyübiye",
    "state": "Southeastern Anatolia Region",
    "country": "Turkey",
    "formatted": "Seksenören Höyüğü, Eyyübiye, Şanlıurfa, Turkey"
  },
  {
    "id": "51be805eb87353434059ce52c43e01f94240f00103f901b91eed890100000092030d53656c6a756b20427269646765",
    "name": "Seljuk Bridge",
    "category": "tourism,tourism.attraction",
    "latitude": 37.9453505,
    "longitude": 38.651969,
    "city": "Kâhta",
    "state": "Southeastern Anatolia Region",
    "country": "Turkey",
    "formatted": "Seljuk Bridge, 02-09, Kâhta, Turkey"
  },
  {
    "id": "51ae6cc60ab008434059b01ae9f417be4240f00102f90172d7395600000000",
    "name": "Sesönk",
    "category": "tourism,tourism.sights,tourism.sights.archaeological_site,tourism.sights.memorial,tourism.sights.memorial.tumulus",
    "latitude": 37.4851061,
    "longitude": 38.0678724,
    "city": "Besni",
    "state": "Southeastern Anatolia Region",
    "country": "Turkey",
    "formatted": "Sesönk, Ören yolu, Besni, Turkey"
  },
  {
    "id": "515edf77da882c434059e07788fa93864240f00102f90131caf5510000000092031b53657979696420c59e6579682053616c696820446572676168c4b1",
    "name": "Seyyid Şeyh Salih Dergahı",
    "category": "building,building.historic,tourism,tourism.sights,tourism.sights.memorial,tourism.sights.memorial.tomb",
    "latitude": 37.051391,
    "longitude": 38.3479264,
    "city": "Suruç",
    "state": "Southeastern Anatolia Region",
    "country": "Turkey",
    "formatted": "Seyyid Şeyh Salih Dergahı, Gaziantep-Urfa yolu, Suruç, Turkey"
  },
  {
    "id": "51e47a060389a84340595875b06fa7e04240f00102f9015240ef0a000000009203125369766572656b2048c3b679c3bcc49fc3bc",
    "name": "Siverek Höyüğü",
    "category": "man_made,tourism,tourism.attraction,tourism.sights,tourism.sights.archaeological_site",
    "latitude": 37.7551098,
    "longitude": 39.3166813,
    "city": "Siverek",
    "state": "Southeastern Anatolia Region",
    "country": "Turkey",
    "formatted": "Siverek Höyüğü, Gerger Caddesi, Siverek, Turkey"
  },
  {
    "id": "51def9ea4f87a8434059a05e945ba4e04240f00103f901a4df730c0100000092030e5369766572656b204b616c657369",
    "name": "Siverek Kalesi",
    "category": "tourism,tourism.sights,tourism.sights.castle",
    "latitude": 37.7550158,
    "longitude": 39.3166294,
    "city": "Siverek",
    "state": "Southeastern Anatolia Region",
    "country": "Turkey",
    "formatted": "Siverek Kalesi, Gerger Caddesi, Siverek, Turkey"
  },
  {
    "id": "5108d7bb5ff75e4340599ed0549396fd4240f00102f9014c9a98260000000092030d5374657070656420416c746172",
    "name": "Stepped Altar",
    "category": "building,building.historic,building.tourism,tourism,tourism.attraction,tourism.sights,tourism.sights.archaeological_site",
    "latitude": 37.9811577,
    "longitude": 38.7419243,
    "city": "Kâhta",
    "state": "Southeastern Anatolia Region",
    "country": "Turkey",
    "formatted": "Stepped Altar, East terrace, Kâhta, Turkey"
  },
  {
    "id": "514d362f98095443405954f5584fadf84240f00103f90191d76f2901000000",
    "name": "Stone slab with relief",
    "category": "tourism,tourism.attraction,tourism.attraction.artwork",
    "latitude": 37.942789,
    "longitude": 38.6565428,
    "city": "Kâhta",
    "state": "Southeastern Anatolia Region",
    "country": "Turkey",
    "formatted": "Stone slab with relief, 02-09, Kâhta, Turkey"
  },
  {
    "id": "51d33379950474434059f0a604896d864240f00102f9010aacb6070000000092031553756c74616e746570652048c3b679c3bcc49fc3bc",
    "name": "Sultantepe Höyüğü",
    "category": "man_made,tourism,tourism.attraction,tourism.sights,tourism.sights.archaeological_site",
    "latitude": 37.0502178,
    "longitude": 38.9063899,
    "city": "Eyyübiye",
    "state": "Southeastern Anatolia Region",
    "country": "Turkey",
    "formatted": "Sultantepe Mound, Şanlıurfa-Suriye yolu, Eyyübiye, Turkey"
  },
  {
    "id": "5152b0888a42ab434059da1d0f536c7f4240f00102f901a5fd64100000000092031053756d61746172204861726162657369",
    "name": "Sumatar Harabesi",
    "category": "man_made,tourism,tourism.attraction,tourism.sights,tourism.sights.archaeological_site",
    "latitude": 36.9954933,
    "longitude": 39.3379682,
    "city": "Eyyübiye",
    "state": "Southeastern Anatolia Region",
    "country": "Turkey",
    "formatted": "Sumatar Ruins, Eyyübiye, Şanlıurfa, Turkey"
  },
  {
    "id": "515ebbb4e1b05e434059ca7e62a879fd4240f00103f901d180f75b02000000",
    "name": "Sunset point",
    "category": "tourism,tourism.attraction,tourism.attraction.viewpoint",
    "latitude": 37.9802752,
    "longitude": 38.739773,
    "city": "Kâhta",
    "state": "Southeastern Anatolia Region",
    "country": "Turkey",
    "formatted": "Sunset point, West terrace, Kâhta, Turkey"
  },
  {
    "id": "51740f8bf68e7c434059eaca533797694240f00102f9014b41ad100000000092031453c3bc746cc3bc63652048c3b679c3bcc49fc3bc",
    "name": "Sütlüce Höyüğü",
    "category": "man_made,tourism,tourism.sights,tourism.sights.archaeological_site",
    "latitude": 36.8249273,
    "longitude": 38.9731129,
    "city": "Harran",
    "state": "Southeastern Anatolia Region",
    "country": "Turkey",
    "formatted": "Sütlüce Höyüğü, Üst Geçit, Harran, Turkey"
  },
  {
    "id": "511caee314537743405923ee528d838d4240f00102f9011e3f363b00000000920316c59e6168204d7568616d6d65742054c3bc7262657369",
    "name": "Şah Muhammet Türbesi",
    "category": "building,building.historic,tourism,tourism.sights,tourism.sights.memorial,tourism.sights.memorial.tomb",
    "latitude": 37.1055772,
    "longitude": 38.9322229,
    "city": "Haliliye",
    "state": "Southeastern Anatolia Region",
    "country": "Turkey",
    "formatted": "Şah Muhammet Türbesi, Haliliye, Şanlıurfa, Turkey"
  },
  {
    "id": "51ca634a7a6e65434059c39a4cb87c944240f00102f9013d3f2b440000000092032ec59e616e6cc4b17572666120c4b06c204bc3bc6c74c3bc7220547572697a6d204dc3bc64c3bc726cc3bcc49fc3bc",
    "name": "Şanlıurfa İl Kültür Turizm Müdürlüğü",
    "category": "building,building.historic,tourism,tourism.sights",
    "latitude": 37.1600562,
    "longitude": 38.792434,
    "city": "Şanlıurfa",
    "state": "Southeastern Anatolia Region",
    "country": "Turkey",
    "formatted": "Şanlıurfa İl Kültür Turizm Müdürlüğü, Atatürk Bulvarı, 63100 Şanlıurfa, Turkey"
  },
  {
    "id": "51385b8b5159644340591048e22da1924240f00102f901881c420b00000000920312c59e616e6cc4b175726661204b616c657369",
    "name": "Şanlıurfa Kalesi",
    "category": "tourism,tourism.sights,tourism.sights.castle",
    "latitude": 37.1455438,
    "longitude": 38.7839758,
    "city": "Eyyübiye",
    "state": "Southeastern Anatolia Region",
    "country": "Turkey",
    "formatted": "Şanlıurfa Castle, Harran Kapı Caddesi, 63210 Eyyübiye, Turkey"
  },
  {
    "id": "5186d42205023b434059c8ad3fcb29794240f00102f901c199114900000000920317c59e657968204dc3bc736cc3bc6d2054c3bc7262657369",
    "name": "Şeyh Müslüm Türbesi",
    "category": "building,building.historic,tourism,tourism.sights,tourism.sights.memorial,tourism.sights.memorial.tomb",
    "latitude": 36.946588,
    "longitude": 38.4609991,
    "city": "Suruç",
    "state": "Southeastern Anatolia Region",
    "country": "Turkey",
    "formatted": "Şeyh Müslüm Türbesi, 63-51, 63800 Suruç, Turkey"
  },
  {
    "id": "51a2de9dc607554340593a30ffba09ee4240f00102f9012b21cc490000000092031cc59e65796820c3966d657269204e7572616e692054c3bc7262657369",
    "name": "Şeyh Ömeri Nurani Türbesi",
    "category": "building,building.historic,tourism,tourism.sights,tourism.sights.memorial,tourism.sights.memorial.tomb",
    "latitude": 37.859672,
    "longitude": 38.6642998,
    "city": "Kâhta",
    "state": "Southeastern Anatolia Region",
    "country": "Turkey",
    "formatted": "Şeyh Ömeri Nurani Türbesi, D360, Kâhta, Turkey"
  },
  {
    "id": "515b57cc086fa8434059dce12268ccdf4240f00103f9010bc9e6eb00000000920315c59e6977616e20506572766572204865796b656c69",
    "name": "Şiwan Perver Heykeli",
    "category": "tourism,tourism.sights,tourism.sights.memorial,tourism.sights.memorial.monument",
    "latitude": 37.7484255,
    "longitude": 39.3158885,
    "city": "Siverek",
    "state": "Southeastern Anatolia Region",
    "country": "Turkey",
    "formatted": "Şiwan Perver Heykeli, Atatürk Bulvarı, Siverek, Turkey"
  },
  {
    "id": "515a2aa657ab1943405913e6c1ec2f874240f00102f90103859a120000000092030e5461c59f6cc4b168c3b679c3bc6b",
    "name": "Taşlıhöyük",
    "category": "man_made,tourism,tourism.sights,tourism.sights.archaeological_site",
    "latitude": 37.0561501,
    "longitude": 38.2005415,
    "city": "Suruç",
    "state": "Southeastern Anatolia Region",
    "country": "Turkey",
    "formatted": "Taşlıhöyük, Gaziantep-Urfa yolu, Suruç, Turkey"
  },
  {
    "id": "51e45eaae3427a434059ec2643fe99a24240f00103f901bbbfef760000000092030454657065",
    "name": "Tepe",
    "category": "tourism,tourism.sights,tourism.sights.ruines",
    "latitude": 37.2703245,
    "longitude": 38.9551663,
    "city": "Haliliye",
    "state": "Southeastern Anatolia Region",
    "country": "Turkey",
    "formatted": "Tepe, Kabahaydar yolu, Haliliye, Turkey"
  },
  {
    "id": "51acd79ddbf7a8434059feb906dd94e04240f00102f901fcf2324f0000000092030c5465727a696c657220457669",
    "name": "Terziler Evi",
    "category": "building,building.historic,tourism,tourism.sights",
    "latitude": 37.754543,
    "longitude": 39.320064,
    "city": "Siverek",
    "state": "Southeastern Anatolia Region",
    "country": "Turkey",
    "formatted": "Terziler Evi, Hürriyet Caddesi, Siverek, Turkey"
  },
  {
    "id": "51349cb72cad3f434059946e2eac76754240f00102f901fbf0ea3f0000000092031354696c616e7461722048c3b679c3bcc49fc3bc",
    "name": "Tilantar Höyüğü",
    "category": "man_made,tourism,tourism.sights,tourism.sights.archaeological_site",
    "latitude": 36.9176841,
    "longitude": 38.4974724,
    "city": "Suruç",
    "state": "Southeastern Anatolia Region",
    "country": "Turkey",
    "formatted": "Tilantar Höyüğü, 63-51, Suruç, Turkey"
  },
  {
    "id": "51d9582ec0e36e43405968a3a3e8dcdb4240f00103f901d95ebcc40200000092030d54696c6c652048c3b679c3bc6b",
    "name": "Tille Höyük",
    "category": "tourism,tourism.sights,tourism.sights.archaeological_site",
    "latitude": 37.7176791,
    "longitude": 38.8663254,
    "city": "Kâhta",
    "state": "Southeastern Anatolia Region",
    "country": "Turkey",
    "formatted": "Tille Höyük, Kâhta, Adıyaman, Turkey"
  },
  {
    "id": "51e8df96c35b54434059d40c4a8bc4a54240f00102f9014386b73f0000000092031154696c6d656e2048c3b679c3bcc49fc3bc",
    "name": "Tilmen Höyüğü",
    "category": "man_made,tourism,tourism.sights,tourism.sights.archaeological_site",
    "latitude": 37.2950606,
    "longitude": 38.6590504,
    "city": "Karaköprü",
    "state": "Southeastern Anatolia Region",
    "country": "Turkey",
    "formatted": "Tilmen Höyüğü, Şanlıurfa-Adıyaman Yolu, Karaköprü, Turkey"
  },
  {
    "id": "516adadde38c56434059206d99bbf1bc4240f00102f901762d62070000000092030f5469747269c59f2048c3b679c3bc6b",
    "name": "Titriş Höyük",
    "category": "man_made,tourism,tourism.attraction,tourism.sights,tourism.sights.archaeological_site",
    "latitude": 37.4761271,
    "longitude": 38.6761746,
    "city": "Karaköprü",
    "state": "Southeastern Anatolia Region",
    "country": "Turkey",
    "formatted": "Titriş Höyük, Karaköprü, Şanlıurfa, Turkey"
  },
  {
    "id": "519219d196ad78434059502bac3b71804240f00102f9016042150b0000000092030e5475726c756b2048c3b679c3bc6b",
    "name": "Turluk Höyük",
    "category": "man_made,tourism,tourism.sights,tourism.sights.archaeological_site",
    "latitude": 37.0034556,
    "longitude": 38.9427975,
    "city": "Eyyübiye",
    "state": "Southeastern Anatolia Region",
    "country": "Turkey",
    "formatted": "Turluk Höyük, 63-25, Eyyübiye, Turkey"
  },
  {
    "id": "5180e1ab0ca7234340594409564623e14240f00101f901d6cded000000000092030954757a2048616ec4b1",
    "name": "Tuz Hanı",
    "category": "building,building.historic,tourism,tourism.sights",
    "latitude": 37.758889,
    "longitude": 38.2785354,
    "city": "Adıyaman",
    "state": "Southeastern Anatolia Region",
    "country": "Turkey",
    "formatted": "Tuz Hanı, Demirci Sokağı, 02200 Adıyaman, Turkey"
  },
  {
    "id": "51c364aa605454434059c178befedaa54240f00103f90178d0bbc40200000092032154c3bc6c6d656e202854696c6d656e292048c3b679c3bc6b2028426f7a6f766129",
    "name": "Tülmen (Tilmen) Höyük (Bozova)",
    "category": "tourism,tourism.sights,tourism.sights.archaeological_site",
    "latitude": 37.2957457,
    "longitude": 38.658825,
    "city": "Karaköprü",
    "state": "Southeastern Anatolia Region",
    "country": "Turkey",
    "formatted": "Tülmen (Tilmen) Höyük (Bozova), Şanlıurfa-Adıyaman Yolu, Karaköprü, Turkey"
  },
  {
    "id": "5131a30ee14e5a434059eb046bbccf844240f00103f901231dd8dd0200000092031c596162616e204861796174c4b12047c3b67a6c656d63696c69c49f69",
    "name": "Yaban Hayatı Gözlemciliği",
    "category": "tourism,tourism.attraction,tourism.attraction.viewpoint",
    "latitude": 37.0375896,
    "longitude": 38.7055322,
    "city": "Eyyübiye",
    "state": "Southeastern Anatolia Region",
    "country": "Turkey",
    "formatted": "Yaban Hayatı Gözlemciliği, Eyyübiye, Şanlıurfa, Turkey"
  },
  {
    "id": "510e0071d3893043405996950bd7597c4240f00102f901fee5b50700000000920312596174c4b172746570652048c3b679c3bc6b",
    "name": "Yatırtepe Höyük",
    "category": "man_made,tourism,tourism.sights,tourism.sights.archaeological_site",
    "latitude": 36.9714917,
    "longitude": 38.3792061,
    "city": "Suruç",
    "state": "Southeastern Anatolia Region",
    "country": "Turkey",
    "formatted": "Yatırtepe Höyük, Suruç Çevre Yolu, 63800 Suruç, Turkey"
  },
  {
    "id": "512c882a294d2b434059051f9f6120b14240f00102f9019506ae10000000009203115961796c616b2048c3b679c3bcc49fc3bc",
    "name": "Yaylak Höyüğü",
    "category": "man_made,tourism,tourism.sights,tourism.sights.archaeological_site",
    "latitude": 37.3838007,
    "longitude": 38.3382923,
    "city": "Bozova",
    "state": "Southeastern Anatolia Region",
    "country": "Turkey",
    "formatted": "Yaylak Höyüğü, 63-78, Bozova, Turkey"
  },
  {
    "id": "510c30c1318953434059e05cfe4e49f94240f00102f901730361100000000092030959656e69204b616c65",
    "name": "Yeni Kale",
    "category": "tourism,tourism.sights,tourism.sights.castle",
    "latitude": 37.9475497,
    "longitude": 38.6526243,
    "city": "Kâhta",
    "state": "Southeastern Anatolia Region",
    "country": "Turkey",
    "formatted": "Yeni Kale, 02-09, Kâhta, Turkey"
  },
  {
    "id": "51d7da560e88a94340592b68460b2be04240f00103f90110c9e6eb0000000092031659c4b16c6d617a2047c3bc6e6579204865796b656c69",
    "name": "Yılmaz Güney Heykeli",
    "category": "tourism,tourism.sights,tourism.sights.memorial,tourism.sights.memorial.monument",
    "latitude": 37.7513136,
    "longitude": 39.3244646,
    "city": "Siverek",
    "state": "Southeastern Anatolia Region",
    "country": "Turkey",
    "formatted": "Yılmaz Güney Heykeli, Ofis 1. Sokak, Siverek, Turkey"
  },
  {
    "id": "5196af5195ca73434059f61a454b796c4240f00102f90139faca0c0000000092031759756b6172c4b16265c49f6465c59f2048c3b679c3bc6b",
    "name": "Yukarıbeğdeş Höyük",
    "category": "man_made,tourism,tourism.sights,tourism.sights.archaeological_site",
    "latitude": 36.8474516,
    "longitude": 38.9046199,
    "city": "Akçakale",
    "state": "Southeastern Anatolia Region",
    "country": "Turkey",
    "formatted": "Yukarıbeğdeş Höyük, 63-27, Akçakale, Turkey"
  },
  {
    "id": "51e1912ebdda814340595a27b1312fc74240f00102f901798eb43f000000009203145975766163616cc4b12048c3b679c3bcc49fc3bc",
    "name": "Yuvacalı Höyüğü",
    "category": "man_made,tourism,tourism.sights,tourism.sights.archaeological_site",
    "latitude": 37.5561278,
    "longitude": 39.0144879,
    "city": "Hilvan",
    "state": "Southeastern Anatolia Region",
    "country": "Turkey",
    "formatted": "Yuvacalı Mound, walking path, Hilvan, Turkey"
  },
  {
    "id": "51397afcdea6a9434059b3b426e208e14240f00103f90182418d2b010000009203175ac3bc6c66696b617220c4b07a6f6c204865796b656c69",
    "name": "Zülfikar İzol Heykeli",
    "category": "tourism,tourism.sights,tourism.sights.memorial",
    "latitude": 37.7580836,
    "longitude": 39.325405,
    "city": "Siverek",
    "state": "Southeastern Anatolia Region",
    "country": "Turkey",
    "formatted": "Zülfikar İzol Heykeli, Esmerçayı Caddesi, Siverek, Turkey"
  }
]